[
{"name":"南普陀寺","type":["参观游玩","参观游玩","参观游玩"],"address":"厦门市思明区金榜路127号","url":"images/t5.jpg","lat":"24.440773","lng":"118.09680400000002"},
{"name":"海沧大桥","type":["参观游玩"],"address":"厦门市思明区金榜路127号","url":"images/t3.jpg","lat":"24.492645","lng":"118.0821641"},
{"name":"园林植物园","type":["参观游玩"],"address":"厦门市思明区金榜路127号","url":"images/t1.jpg","lat":"24.4450782","lng":"118.10133329999996"},
{"name":"白城沙滩","type":["参观游玩"],"address":"厦门市思明区金榜路127号","url":"images/t2.jpg","lat":"24.431703","lng":"118.10202000000004"},
{"name":"环岛路木栈道","type":["参观游玩"],"address":"厦门市思明区金榜路127号","url":"images/t4.jpg","lat":"24.431209","lng":"118.10486300000002"},
{"name":"金山松石景区","type":["参观游玩"],"address":"厦门市思明区金榜路127号","url":"images/t7.jpg","lat":"24.4341816","lng":"118.13929280000002"},
{"name":"金榜公园","type":["参观游玩"],"address":"厦门市思明区金榜路127号","url":"images/t8.jpg","lat":"24.465112","lng":"118.10979599999996"},
{"name":"皓月园","type":["参观游玩"],"address":"厦门市思明区金榜路127号","url":"images/t6.jpg","lat":"24.4418852","lng":"118.07562200000007"},
{"name":"园博苑","type":["参观游玩"],"address":"厦门市思明区金榜路127号","url":"images/t9.jpg","lat":"24.569907","lng":"118.069839"},
{"name":"大方素食馆","type":["美食品尝"],"address":"厦门市思明区金榜路127号","url":"images/f1.jpg","lat":"24.440332","lng":"118.09283700000003"},
{"name":"朗地咖啡馆","type":["美食品尝"],"address":"厦门市思明区金榜路127号","url":"images/f2.jpg","lat":"24.440458","lng":"118.092174"},
{"name":"品佳茶餐厅","type":["美食品尝"],"address":"厦门市思明区金榜路127号","url":"images/f5.jpg","lat":"24.454379","lng":"118.07481899999993"},
{"name":"凯裕国际酒店","type":["一晚住宿"],"address":"厦门市思明区金榜路127号","url":"images/h3.jpg","lat":"24.4845701","lng":"118.12445049999997"},
{"name":"梦想家主题酒店","type":["一晚住宿"],"address":"厦门市思明区金榜路127号","url":"images/h4.jpg","lat":"24.49020029999999","lng":"118.12779460000002"},
{"name":"吉家商务酒店","type":["一晚住宿"],"address":"厦门市思明区金榜路127号","url":"images/h5.jpeg","lat":"24.4992704","lng":"118.13858600000003"},
{"name":"皓月园","type":["参观游玩"],"address":"厦门市思明区金榜路127号","url":"images/t6.jpg","lat":"24.4418852","lng":"118.07562200000007"},
{"name":"味千拉面","type":["美食品尝"],"address":"厦门市思明区金榜路127号","url":"images/f3.jpg","lat":"24.48994099999999","lng":"118.11249020000002"},
{"name":"威斯汀酒店","type":["一晚住宿"],"address":"厦门市思明区金榜路127号","url":"images/h1.jpg","lat":"24.4918889","lng":"118.11173789999998"},
{"name":"皇冠假日酒店","type":["一晚住宿"],"address":"厦门市思明区金榜路127号","url":"images/h2.jpg","lat":"24.4821665","lng":"118.12063609999996"},
{"name":"皓月园","type":["参观游玩"],"address":"厦门市思明区金榜路127号","url":"images/t6.jpg","lat":"24.4418852","lng":"118.07562200000007"},
{"name":"园博苑","type":["参观游玩"],"address":"厦门市思明区金榜路127号","url":"images/t9.jpg","lat":"24.569907","lng":"118.069839"},
{"name":"大方素食馆","type":["美食品尝"],"address":"厦门市思明区金榜路127号","url":"images/f1.jpg","lat":"24.440332","lng":"118.09283700000003"},
{"name":"朗地咖啡馆","type":["美食品尝"],"address":"厦门市思明区金榜路127号","url":"images/f2.jpg","lat":"24.440458","lng":"118.092174"},
{"name":"品佳茶餐厅","type":["美食品尝"],"address":"厦门市思明区金榜路127号","url":"images/f5.jpg","lat":"24.454379","lng":"118.07481899999993"},
{"name":"凯裕国际酒店","type":["一晚住宿"],"address":"厦门市思明区金榜路127号","url":"images/h3.jpg","lat":"24.4845701","lng":"118.12445049999997"},
{"name":"凯裕国际酒店","type":["一晚住宿"],"address":"厦门市思明区金榜路127号","url":"images/h3.jpg","lat":"24.4845701","lng":"118.12445049999997"},
{"name":"梦想家主题酒店","type":["一晚住宿"],"address":"厦门市思明区金榜路127号","url":"images/h4.jpg","lat":"24.49020029999999","lng":"118.12779460000002"},
{"name":"吉家商务酒店","type":["一晚住宿"],"address":"厦门市思明区金榜路127号","url":"images/h5.jpeg","lat":"24.4992704","lng":"118.13858600000003"},
{"name":"皓月园","type":["参观游玩"],"address":"厦门市思明区金榜路127号","url":"images/t6.jpg","lat":"24.4418852","lng":"118.07562200000007"},
{"name":"梦想家主题酒店","type":["一晚住宿"],"address":"厦门市思明区金榜路127号","url":"images/h4.jpg","lat":"24.49020029999999","lng":"118.12779460000002"},
{"name":"吉家商务酒店","type":["一晚住宿"],"address":"厦门市思明区金榜路127号","url":"images/h5.jpeg","lat":"24.4992704","lng":"118.13858600000003"},
{"name":"皓月园","type":["参观游玩"],"address":"厦门市思明区金榜路127号","url":"images/t6.jpg","lat":"24.4418852","lng":"118.07562200000007"},
{"name":"园博苑","type":["参观游玩"],"address":"厦门市思明区金榜路127号","url":"images/t9.jpg","lat":"24.569907","lng":"118.069839"},
{"name":"凯裕国际酒店","type":["一晚住宿"],"address":"厦门市思明区金榜路127号","url":"images/h3.jpg","lat":"24.4845701","lng":"118.12445049999997"},
{"name":"梦想家主题酒店","type":["一晚住宿"],"address":"厦门市思明区金榜路127号","url":"images/h4.jpg","lat":"24.49020029999999","lng":"118.12779460000002"},
{"name":"吉家商务酒店","type":["一晚住宿"],"address":"厦门市思明区金榜路127号","url":"images/h5.jpeg","lat":"24.4992704","lng":"118.13858600000003"},
{"name":"皓月园","type":["参观游玩"],"address":"厦门市思明区金榜路127号","url":"images/t6.jpg","lat":"24.4418852","lng":"118.07562200000007"},
{"name":"大方素食馆","type":["美食品尝"],"address":"厦门市思明区金榜路127号","url":"images/f1.jpg","lat":"24.440332","lng":"118.09283700000003"},
{"name":"朗地咖啡馆","type":["美食品尝"],"address":"厦门市思明区金榜路127号","url":"images/f2.jpg","lat":"24.440458","lng":"118.092174"},
{"name":"品佳茶餐厅","type":["美食品尝"],"address":"厦门市思明区金榜路127号","url":"images/f5.jpg","lat":"24.454379","lng":"118.07481899999993"},
{"name":"品佳茶餐厅","type":["美食品尝"],"address":"厦门市思明区金榜路127号","url":"images/f5.jpg","lat":"24.454379","lng":"118.07481899999993"},
{"name":"凯裕国际酒店","type":["一晚住宿"],"address":"厦门市思明区金榜路127号","url":"images/h3.jpg","lat":"24.4845701","lng":"118.12445049999997"},
{"name":"梦想家主题酒店","type":["一晚住宿"],"address":"厦门市思明区金榜路127号","url":"images/h4.jpg","lat":"24.49020029999999","lng":"118.12779460000002"},
{"name":"吉家商务酒店","type":["一晚住宿"],"address":"厦门市思明区金榜路127号","url":"images/h5.jpeg","lat":"24.4992704","lng":"118.13858600000003"},
{"name":"皓月园","type":["参观游玩"],"address":"厦门市思明区金榜路127号","url":"images/t6.jpg","lat":"24.4418852","lng":"118.07562200000007"},
{"name":"味千拉面","type":["美食品尝"],"address":"厦门市思明区金榜路127号","url":"images/f3.jpg","lat":"24.48994099999999","lng":"118.11249020000002"},
{"name":"威斯汀酒店","type":["一晚住宿"],"address":"厦门市思明区金榜路127号","url":"images/h1.jpg","lat":"24.4918889","lng":"118.11173789999998"},
{"name":"皇冠假日酒店","type":["一晚住宿"],"address":"厦门市思明区金榜路127号","url":"images/h2.jpg","lat":"24.4821665","lng":"118.12063609999996"},
{"name":"皓月园","type":["参观游玩"],"address":"厦门市思明区金榜路127号","url":"images/t6.jpg","lat":"24.4418852","lng":"118.07562200000007"},
{"name":"园博苑","type":["参观游玩"],"address":"厦门市思明区金榜路127号","url":"images/t9.jpg","lat":"24.569907","lng":"118.069839"},
{"name":"大方素食馆","type":["美食品尝"],"address":"厦门市思明区金榜路127号","url":"images/f1.jpg","lat":"24.440332","lng":"118.09283700000003"},
{"name":"朗地咖啡馆","type":["美食品尝"],"address":"厦门市思明区金榜路127号","url":"images/f2.jpg","lat":"24.440458","lng":"118.092174"},
{"name":"品佳茶餐厅","type":["美食品尝"],"address":"厦门市思明区金榜路127号","url":"images/f5.jpg","lat":"24.454379","lng":"118.07481899999993"},
{"name":"凯裕国际酒店","type":["一晚住宿"],"address":"厦门市思明区金榜路127号","url":"images/h3.jpg","lat":"24.4845701","lng":"118.12445049999997"},
{"name":"凯裕国际酒店","type":["一晚住宿"],"address":"厦门市思明区金榜路127号","url":"images/h3.jpg","lat":"24.4845701","lng":"118.12445049999997"},
{"name":"梦想家主题酒店","type":["一晚住宿"],"address":"厦门市思明区金榜路127号","url":"images/h4.jpg","lat":"24.49020029999999","lng":"118.12779460000002"},
{"name":"吉家商务酒店","type":["一晚住宿"],"address":"厦门市思明区金榜路127号","url":"images/h5.jpeg","lat":"24.4992704","lng":"118.13858600000003"},
{"name":"皓月园","type":["参观游玩"],"address":"厦门市思明区金榜路127号","url":"images/t6.jpg","lat":"24.4418852","lng":"118.07562200000007"},
{"name":"梦想家主题酒店","type":["一晚住宿"],"address":"厦门市思明区金榜路127号","url":"images/h4.jpg","lat":"24.49020029999999","lng":"118.12779460000002"},
{"name":"吉家商务酒店","type":["一晚住宿"],"address":"厦门市思明区金榜路127号","url":"images/h5.jpeg","lat":"24.4992704","lng":"118.13858600000003"},
{"name":"皓月园","type":["参观游玩"],"address":"厦门市思明区金榜路127号","url":"images/t6.jpg","lat":"24.4418852","lng":"118.07562200000007"},
{"name":"园博苑","type":["参观游玩"],"address":"厦门市思明区金榜路127号","url":"images/t9.jpg","lat":"24.569907","lng":"118.069839"},
{"name":"凯裕国际酒店","type":["一晚住宿"],"address":"厦门市思明区金榜路127号","url":"images/h3.jpg","lat":"24.4845701","lng":"118.12445049999997"},
{"name":"梦想家主题酒店","type":["一晚住宿"],"address":"厦门市思明区金榜路127号","url":"images/h4.jpg","lat":"24.49020029999999","lng":"118.12779460000002"},
{"name":"吉家商务酒店","type":["一晚住宿"],"address":"厦门市思明区金榜路127号","url":"images/h5.jpeg","lat":"24.4992704","lng":"118.13858600000003"},
{"name":"皓月园","type":["参观游玩"],"address":"厦门市思明区金榜路127号","url":"images/t6.jpg","lat":"24.4418852","lng":"118.07562200000007"},
{"name":"大方素食馆","type":["美食品尝"],"address":"厦门市思明区金榜路127号","url":"images/f1.jpg","lat":"24.440332","lng":"118.09283700000003"},
{"name":"朗地咖啡馆","type":["美食品尝"],"address":"厦门市思明区金榜路127号","url":"images/f2.jpg","lat":"24.440458","lng":"118.092174"},
{"name":"品佳茶餐厅","type":["美食品尝"],"address":"厦门市思明区金榜路127号","url":"images/f5.jpg","lat":"24.454379","lng":"118.07481899999993"}
]